[
  {
    "id": 1,
    "name": "John Doe",
    "date": "2024-07-19",
    "status": "Baru",
    "latitude": 1.480015,
    "longitude": 124.848975,
    "phone": "081234567890"
  },
  {
    "id": 2,
    "name": "Jane Smith",
    "date": "2024-07-18",
    "status": "Sedang Ditanggapi",
    "latitude": 1.490500,
    "longitude": 124.842700,
    "phone": "081234567891"
  },
  {
    "id": 3,
    "name": "Alice Johnson",
    "date": "2024-07-17",
    "status": "Baru",
    "latitude": 1.484000,
    "longitude": 124.851000,
    "phone": "081234567892"
  },
  {
    "id": 4,
    "name": "Bob Brown",
    "date": "2024-07-16",
    "status": "Selesai",
    "latitude": 1.476000,
    "longitude": 124.840500,
    "phone": "081234567893"
  },
  {
    "id": 5,
    "name": "Charlie Davis",
    "date": "2024-07-15",
    "status": "Sedang Ditanggapi",
    "latitude": 1.472000,
    "longitude": 124.860000,
    "phone": "081234567894"
  },
  {
    "id": 6,
    "name": "David Evans",
    "date": "2024-07-14",
    "status": "Baru",
    "latitude": 1.471500,
    "longitude": 124.852000,
    "phone": "081234567895"
  },
  {
    "id": 7,
    "name": "Eva Green",
    "date": "2024-07-13",
    "status": "Selesai",
    "latitude": 1.485000,
    "longitude": 124.849500,
    "phone": "081234567896"
  },
  {
    "id": 8,
    "name": "Frank Harris",
    "date": "2024-07-12",
    "status": "Baru",
    "latitude": 1.479000,
    "longitude": 124.841000,
    "phone": "081234567897"
  },
  {
    "id": 9,
    "name": "Grace Lee",
    "date": "2024-07-11",
    "status": "Sedang Ditanggapi",
    "latitude": 1.473000,
    "longitude": 124.845000,
    "phone": "081234567898"
  },
  {
    "id": 10,
    "name": "Henry Moore",
    "date": "2024-07-10",
    "status": "Baru",
    "latitude": 1.480000,
    "longitude": 124.854000,
    "phone": "081234567899"
  },
  {
    "id": 11,
    "name": "Ivy Nelson",
    "date": "2024-07-09",
    "status": "Selesai",
    "latitude": 1.470000,
    "longitude": 124.856000,
    "phone": "081234567900"
  },
  {
    "id": 12,
    "name": "Jack Owens",
    "date": "2024-07-08",
    "status": "Baru",
    "latitude": 1.474000,
    "longitude": 124.858000,
    "phone": "081234567901"
  },
  {
    "id": 13,
    "name": "Karen Price",
    "date": "2024-07-07",
    "status": "Sedang Ditanggapi",
    "latitude": 1.477000,
    "longitude": 124.848000,
    "phone": "081234567902"
  },
  {
    "id": 14,
    "name": "Leo Quinn",
    "date": "2024-07-06",
    "status": "Baru",
    "latitude": 1.478500,
    "longitude": 124.843000,
    "phone": "081234567903"
  },
  {
    "id": 15,
    "name": "Mia Roberts",
    "date": "2024-07-05",
    "status": "Selesai",
    "latitude": 1.481000,
    "longitude": 124.850000,
    "phone": "081234567904"
  },
  {
    "id": 16,
    "name": "Noah Scott",
    "date": "2024-07-04",
    "status": "Baru",
    "latitude": 1.482000,
    "longitude": 124.855000,
    "phone": "081234567905"
  },
  {
    "id": 17,
    "name": "Olivia Taylor",
    "date": "2024-07-03",
    "status": "Sedang Ditanggapi",
    "latitude": 1.483000,
    "longitude": 124.846000,
    "phone": "081234567906"
  },
  {
    "id": 18,
    "name": "Paul Walker",
    "date": "2024-07-02",
    "status": "Selesai",
    "latitude": 1.486000,
    "longitude": 124.859000,
    "phone": "081234567907"
  },
  {
    "id": 19,
    "name": "Quinn Young",
    "date": "2024-07-01",
    "status": "Baru",
    "latitude": 1.487000,
    "longitude": 124.857000,
    "phone": "081234567908"
  }
]
